{
    "1-1": {
        "address": "3000 Mystic Valley Pkwy, Medford, MA",
        "label": "1-1\nAndrews Middle School",
        "lat": 42.4117859,
        "lon": -71.0983715
    },
    "1-2": {
        "address": "340 Salem St, Medford, MA",
        "label": "1-2\nFire Fighter's Club",
        "lat": 42.4218812,
        "lon": -71.0969071
    },
    "2-1": {
        "address": "35 Court St, Medford, MA",
        "label": "2-1 & 2-2\nRoberts Elementary",
        "lat": 42.4218126,
        "lon": -71.0994721
    },
    "3-1": {
        "address": "321 Winthrop St, Medford, MA",
        "label": "3-1\nMedford American Legion",
        "lat": 42.422844,
        "lon": -71.1188557
    },
    "3-2": {
        "address": "475 Winthrop St, Medford, MA",
        "label": "3-2\nTemple Shalom",
        "lat": 42.4276467,
        "lon": -71.1249194
    },
    "4-1": {
        "address": "161 College Ave, Medford, MA",
        "label": "4-1\nTufts University, Gantcher Center",
        "lat": 42.4091586,
        "lon": -71.1153573
    },
    "4-2": {
        "address": "22 Walkling Court, Medford, MA",
        "label": "4-2\nWalkling Court, Fondacaro Center",
        "lat": 42.4171629,
        "lon": -71.1247283
    },
    "5-1": {
        "address": "37 Hicks Ave, Medford, MA",
        "label": "5-1 & 5-2\nMissituk Elementary School",
        "lat": 42.4014711,
        "lon": -71.1018895
    },
    "6-1": {
        "address": "26 Harvard Ave, Medford, MA",
        "label": "6-1\nWest Medford Fire Station",
        "lat": 42.4206217,
        "lon": -71.1331947
    },
    "6-2": {
        "address": "388 High St, Medford, MA",
        "label": "6-2\nBrooks Elementary School",
        "lat": 42.4210535,
        "lon": -71.1281237
    },
    "7-1": {
        "address": "3600 Mystic Valley Pkwy, Medford, MA",
        "label": "7-1\nMystic Valley Towers, Mystic Place",
        "lat": 42.4097178,
        "lon": -71.0959211
    },
    "7-2": {
        "address": "3004 Mystic Valley Pkwy, Medford, MA",
        "label": "7-2\nMcGlynn K-8 Public School",
        "lat": 42.405138,
        "lon": -71.083062
    },
    "8-1": {
        "address": "101 Riverside Ave, Medford, MA",
        "label": "8-1\nSenior Center",
        "lat": 42.4164347,
        "lon": -71.1058854
    },
    "8-2": {
        "address": "20 Medford St, Medford, MA",
        "label": "8-2\nSouth Medford Fire Station",
        "lat": 42.4013015,
        "lon": -71.1058055
    }
}